{
  "cities": [
    {
      "cityName": "Lisbon",
      "country": "Portugal",
      "emoji": "ðŸ‡µðŸ‡¹",
      "date": "2027-10-31T15:59:59.138Z",
      "notes": "My favorite city so far!",
      "position": {
        "lat": 38.727881642324164,
        "lng": -9.140900099907554
      },
      "id": 73930385
    },
    {
      "cityName": "Madrid",
      "country": "Spain",
      "emoji": "ðŸ‡ªðŸ‡¸",
      "date": "2027-07-15T08:22:53.976Z",
      "notes": "",
      "position": {
        "lat": 40.46635901755316,
        "lng": -3.7133789062500004
      },
      "id": 17806751
    },
    {
      "cityName": "Berlin",
      "country": "Germany",
      "emoji": "ðŸ‡©ðŸ‡ª",
      "date": "2027-02-12T09:24:11.863Z",
      "notes": "Amazing ðŸ˜ƒ",
      "position": {
        "lat": 52.53586782505711,
        "lng": 13.376933665713324
      },
      "id": 98443197
    },
    {
      "cityName": "Carlisle",
      "country": "United Kingdom of Great Britain and Northern Ireland (the)",
      "emoji": "ðŸ‡¬ðŸ‡§",
      "date": "2024-01-11T18:21:49.771Z",
      "notes": "",
      "position": {
        "lat": "54.888749594816765",
        "lng": "-2.9349542456206983"
      },
      "id": 98443200
    },
    {
      "cityName": "Liverpool",
      "country": "United Kingdom of Great Britain and Northern Ireland (the)",
      "emoji": "ðŸ‡¬ðŸ‡§",
      "date": "2024-01-11T18:21:55.454Z",
      "notes": "",
      "position": {
        "lat": "53.39956942256383",
        "lng": "-2.9940356339164476"
      },
      "id": 98443201
    },
    {
      "cityName": "Gouffern en Auge",
      "country": "France",
      "emoji": "ðŸ‡«ðŸ‡·",
      "date": "2024-01-11T18:26:11.564Z",
      "notes": "",
      "position": {
        "lat": "48.715656311498385",
        "lng": "0.12049153241415755"
      },
      "id": 98443202
    }
  ]
}